Stop_ID: 1Station_Name: Kimball (Brown Line)ADA: trueRed: falseBlue: falseGreen: falseBrn: truePurp: falseYellow: falsePnk: falseOrg: falseLatitude: 41.967901Longitude: -87.713065N_Ticket: 0Coupon: 1
Stop_ID: 2Station_Name: Kedzie (Brown Line)ADA: trueRed: falseBlue: falseGreen: falseBrn: truePurp: falseYellow: falsePnk: falseOrg: falseLatitude: 41.965996Longitude: -87.708821N_Ticket: 0
Stop_ID: 3Station_Name: Francisco (Brown Line)ADA: trueRed: falseBlue: falseGreen: falseBrn: truePurp: falseYellow: falsePnk: falseOrg: falseLatitude: 41.966046Longitude: -87.701644N_Ticket: 0Coupon: 2
Stop_ID: 4Station_Name: Rockwell (Brown Line)ADA: trueRed: falseBlue: falseGreen: falseBrn: truePurp: falseYellow: falsePnk: falseOrg: falseLatitude: 41.966115Longitude: -87.6941N_Ticket: 0
Stop_ID: 5Station_Name: Western (Brown Line)ADA: trueRed: falseBlue: falseGreen: falseBrn: truePurp: falseYellow: falsePnk: falseOrg: falseLatitude: 41.966163Longitude: -87.688502N_Ticket: 0
Stop_ID: 6Station_Name: Damen (Brown Line)ADA: trueRed: falseBlue: falseGreen: falseBrn: truePurp: falseYellow: falsePnk: falseOrg: falseLatitude: 41.966286Longitude: -87.678639N_Ticket: 0
Stop_ID: 7Station_Name: Montrose (Brown Line)ADA: trueRed: falseBlue: falseGreen: falseBrn: truePurp: falseYellow: falsePnk: falseOrg: falseLatitude: 41.961756Longitude: -87.675047N_Ticket: 0
Stop_ID: 8Station_Name: Irving Park (Brown Line)ADA: trueRed: falseBlue: falseGreen: falseBrn: truePurp: falseYellow: falsePnk: falseOrg: falseLatitude: 41.954521Longitude: -87.674868N_Ticket: 0
Stop_ID: 9Station_Name: Addison (Brown Line)ADA: trueRed: falseBlue: falseGreen: falseBrn: truePurp: falseYellow: falsePnk: falseOrg: falseLatitude: 41.947028Longitude: -87.674642N_Ticket: 0
Stop_ID: 10Station_Name: Paulina (Brown Line)ADA: trueRed: falseBlue: falseGreen: falseBrn: truePurp: falseYellow: falsePnk: falseOrg: falseLatitude: 41.943623Longitude: -87.670907N_Ticket: 0
Stop_ID: 11Station_Name: Southport (Brown Line)ADA: trueRed: falseBlue: falseGreen: falseBrn: truePurp: falseYellow: falsePnk: falseOrg: falseLatitude: 41.943744Longitude: -87.663619N_Ticket: 0
Stop_ID: 12Station_Name: Belmont (Red& Brown & Purple Lines)ADA: trueRed: falseBlue: falseGreen: falseBrn: truePurp: falseYellow: falsePnk: falseOrg: falseLatitude: 41.939751Longitude: -87.65338N_Ticket: 0
Stop_ID: 13Station_Name: Wellington (Brown & Purple Lines)ADA: trueRed: falseBlue: falseGreen: falseBrn: truePurp: falseYellow: falsePnk: falseOrg: falseLatitude: 41.936033Longitude: -87.653266N_Ticket: 0
Stop_ID: 14Station_Name: Diversey (Brown & Purple Lines)ADA: trueRed: falseBlue: falseGreen: falseBrn: truePurp: falseYellow: falsePnk: falseOrg: falseLatitude: 41.932732Longitude: -87.653131N_Ticket: 0Coupon: 2
Stop_ID: 15Station_Name: Fullerton (Red& Brown & Purple Lines)ADA: trueRed: falseBlue: falseGreen: falseBrn: truePurp: falseYellow: falsePnk: falseOrg: falseLatitude: 41.925051Longitude: -87.652866N_Ticket: 0
Stop_ID: 16Station_Name: Armitage (Brown & Purple Lines)ADA: trueRed: falseBlue: falseGreen: falseBrn: truePurp: falseYellow: falsePnk: falseOrg: falseLatitude: 41.918217Longitude: -87.652644N_Ticket: 0
Stop_ID: 17Station_Name: Sedgwick (Brown & Purple Lines)ADA: trueRed: falseBlue: falseGreen: falseBrn: truePurp: falseYellow: falsePnk: falseOrg: falseLatitude: 41.910409Longitude: -87.639302N_Ticket: 0
Stop_ID: 18Station_Name: Chicago (Brown & Purple Lines)ADA: trueRed: falseBlue: falseGreen: falseBrn: truePurp: falseYellow: falsePnk: falseOrg: falseLatitude: 41.89681Longitude: -87.635924N_Ticket: 0
Stop_ID: 19Station_Name: Merchandise Mart (Brown & Purple Lines)ADA: trueRed: falseBlue: falseGreen: falseBrn: truePurp: falseYellow: falsePnk: falseOrg: falseLatitude: 41.888969Longitude: -87.633924N_Ticket: 0
Stop_ID: 20Station_Name: Washington/Wells (Brown& Orange& Purple & Pink Lines)ADA: trueRed: falseBlue: falseGreen: falseBrn: truePurp: falseYellow: falsePnk: falseOrg: falseLatitude: 41.882695Longitude: -87.63378N_Ticket: 0
Stop_ID: 21Station_Name: Quincy/Wells (Brown& Orange& Purple & Pink Lines)ADA: falseRed: falseBlue: falseGreen: falseBrn: truePurp: falseYellow: falsePnk: falseOrg: falseLatitude: 41.878723Longitude: -87.63374N_Ticket: 0
Stop_ID: 22Station_Name: LaSalle/Van Buren (Brown& Orange& Purple & Pink Lines)ADA: falseRed: falseBlue: falseGreen: falseBrn: truePurp: falseYellow: falsePnk: falseOrg: falseLatitude: 41.8768Longitude: -87.631739N_Ticket: 0
Stop_ID: 23Station_Name: Harold Washington Library-State/Van Buren (Brown& Orange& Purple & Pink Lines)ADA: trueRed: falseBlue: falseGreen: falseBrn: truePurp: falseYellow: falsePnk: falseOrg: falseLatitude: 41.876862Longitude: -87.628196N_Ticket: 0
Stop_ID: 24Station_Name: Adams/Wabash (Brown&Green& Orange&Pink & Purple Lines)ADA: falseRed: falseBlue: falseGreen: falseBrn: truePurp: falseYellow: falsePnk: falseOrg: falseLatitude: 41.879507Longitude: -87.626037N_Ticket: 0Coupon: 1
Stop_ID: 25Station_Name: Randolph/Wabash (Brown& Green& Orange& Pink & Purple Lines)ADA: falseRed: falseBlue: falseGreen: falseBrn: truePurp: falseYellow: falsePnk: falseOrg: falseLatitude: 41.884431Longitude: -87.626149N_Ticket: 0
Stop_ID: 26Station_Name: State/Lake (Brown& Green& Orange& Pink & Purple Lines)ADA: falseRed: falseBlue: falseGreen: falseBrn: truePurp: falseYellow: falsePnk: falseOrg: falseLatitude: 41.88574Longitude: -87.627835N_Ticket: 0
Stop_ID: 27Station_Name: Clark/Lake (Blue& Brown& Green& Orange& Purple & Pink Lines)ADA: trueRed: falseBlue: falseGreen: falseBrn: truePurp: falseYellow: falsePnk: falseOrg: falseLatitude: 41.885737Longitude: -87.630886N_Ticket: 0
